{
"type": "FeatureCollection",
"crs": { "type": "name", "properties": { "name": "urn:ogc:def:crs:OGC:1.3:CRS84" } },
"features": [
{ "type": "Feature", "properties": { "Office": "Denver Office", "Address": "621 17th Street", "Address2": "Suite 2301", "City_State": "Denver, CO 80293", "Phone": "Main: 303-296-4300", "Fax": "Fax: 303-296-4302", "Latitude": 39.7457974, "Longitude": -104.9899195, "Staff": 10, "City": "Denver" }, "geometry": { "type": "Point", "coordinates": [ -104.9899195, 39.7457974 ] } },
{ "type": "Feature", "properties": { "Office": "Los Angeles Office", "Address": "600 Wilshire Boulevard", "Address2": "Suite 1050", "City_State": "Los Angeles, CA 90017", "Phone": "Main: 213-261-3050", "Fax": "Fax: 310-394-7663", "Latitude": 34.0479891, "Longitude": -118.2565708, "Staff": 33, "City": "Los Angeles" }, "geometry": { "type": "Point", "coordinates": [ -118.25657080000001, 34.0479891 ] } },
{ "type": "Feature", "properties": { "Office": "Oakland Office", "Address": "2201 Broadway", "Address2": "Suite 400", "City_State": "Oakland, CA 94612", "Phone": "Main: 510-834-3200", "Fax": "Fax: 510-253-0059", "Latitude": 37.81128553, "Longitude": -122.2673914, "Staff": 13, "City": "Oakland" }, "geometry": { "type": "Point", "coordinates": [ -122.2673914, 37.81128553 ] } },
{ "type": "Feature", "properties": { "Office": "Orange County Office", "Address": "8141 E. Kaiser Boulevard", "Address2": "Suite 110", "City_State": "Anaheim, CA 92808", "Phone": "Main: 714-941-8800", "Fax": "Fax: 949-859-3209", "Latitude": 33.8665995, "Longitude": -117.7450145, "Staff": 15, "City": "Anaheim" }, "geometry": { "type": "Point", "coordinates": [ -117.7450145, 33.8665995 ] } },
{ "type": "Feature", "properties": { "Office": "Roseville Office", "Address": "1013 Galleria Boulevard", "Address2": "Suite 225", "City_State": "Roseville, CA 95678", "Phone": "Main: 916-773-1900", "Fax": "Fax: 916-773-2015", "Latitude": 38.7675389, "Longitude": -121.2690734, "Staff": 23, "City": "Roseville" }, "geometry": { "type": "Point", "coordinates": [ -121.2690734, 38.7675389 ] } },
{ "type": "Feature", "properties": { "Office": "Sacramento Office", "Address": "1001 K Street", "Address2": "3rd Floor", "City_State": "Sacramento, CA 95814", "Phone": "Main: 916-329-7332", "Fax": "Fax: 916-773-2015", "Latitude": 38.5793883, "Longitude": -121.4936016, "Staff": 14, "City": "Sacramento" }, "geometry": { "type": "Point", "coordinates": [ -121.49360160000001, 38.5793883 ] } },
{ "type": "Feature", "properties": { "Office": "Salt Lake City Office", "Address": "2180 South 1300 East", "Address2": "Suite 220", "City_State": "Salt Lake City, UT 84106", "Phone": "Main: 801-463-7600", "Fax": "Fax: 801-486-4638", "Latitude": 40.7110895, "Longitude": -111.853628, "Staff": 11, "City": "Salt Lake City" }, "geometry": { "type": "Point", "coordinates": [ -111.853628, 40.7110895 ] } },
{ "type": "Feature", "properties": { "Office": "San Diego Office", "Address": "555 West Beech Street", "Address2": "Suite 302", "City_State": "San Diego, CA 92101", "Phone": "Main: 619-234-3190", "Fax": "Fax: 619-702-9345", "Latitude": 32.7206735, "Longitude": -117.1678762, "Staff": 13, "City": "San Diego" }, "geometry": { "type": "Point", "coordinates": [ -117.1678762, 32.7206735 ] } },
{ "type": "Feature", "properties": { "Office": "San Francisco Office", "Address": "332 Pine Street", "Address2": "4th Floor", "City_State": "San Francisco, CA 94104", "Phone": "Main: 415-348-0300", "Fax": "Fax: 415-773-1790", "Latitude": 37.792245, "Longitude": -122.4016179, "Staff": 24, "City": "San Francisco" }, "geometry": { "type": "Point", "coordinates": [ -122.40161790000001, 37.792245 ] } },
{ "type": "Feature", "properties": { "Office": "San Jose Office", "Address": "160 W. Santa Clara Street", "Address2": "Suite 675", "City_State": "San Jose, CA 95113", "Phone": "Main: 408-278-1700", "Fax": "Fax: 408-278-1717", "Latitude": 37.334551, "Longitude": -121.892948, "Staff": 21, "City": "San Jose" }, "geometry": { "type": "Point", "coordinates": [ -121.892948, 37.334551 ] } },
{ "type": "Feature", "properties": { "Office": "Seattle Office", "Address": "1001 4th Avenue", "Address2": "Suite 4120", "City_State": "Seattle, WA 98154", "Phone": "Main: 206-576-4220", "Fax": "Fax: 206-576-4225", "Latitude": 47.6060651, "Longitude": -122.3339066, "Staff": 18, "City": "Seattle" }, "geometry": { "type": "Point", "coordinates": [ -122.33390660000001, 47.6060651 ] } },
{ "type": "Feature", "properties": { "Office": "Walnut Creek Office", "Address": "100 Pringle Avenue", "Address2": "Suite 600", "City_State": "Walnut Creek, CA 94596", "Phone": "Main: 925-930-7100", "Fax": "Fax: 925-933-7090", "Latitude": 37.9079655, "Longitude": -122.0674863, "Staff": 31, "City": "Walnut Creek" }, "geometry": { "type": "Point", "coordinates": [ -122.0674863, 37.9079655 ] } },
{ "type": "Feature", "properties": { "Office": "Fehr & Peers DC", "Address": "1003 K Street NW", "Address2": "Suite 209", "City_State": "Washington, D.C. 20001", "Phone": "Main: 202-854-2750", "Fax": "Fax: 202-379-7859", "Latitude": 38.9027877, "Longitude": -77.0262715, "Staff": 6, "City": "Wahsington, D.C." }, "geometry": { "type": "Point", "coordinates": [ -77.0262715, 38.9027877 ] } }
]
}
